City,Lat,Lng,Max Temp,Cloudiness,Wind Speed,Country,Humidity,Date
Huarmey,-10.0681,-78.1522,64.11,83,8.57,PE,79,1666654076
Arraial do Cabo,-22.9661,-42.0278,75.06,75,6.91,BR,78,1666653955
Saint-Joseph,-21.3667,55.6167,70.18,21,4.09,RE,82,1666654049
Mataura,-46.1927,168.8643,52.48,1,4.0,NZ,38,1666653894
Hermanus,-34.4187,19.2345,62.8,100,7.43,ZA,82,1666653930
Kruisfontein,-34.0033,24.7314,62.89,25,4.76,ZA,95,1666653958
Touros,-5.1989,-35.4608,78.44,14,15.32,BR,80,1666653964
Albany,42.6001,-73.9662,58.37,100,1.68,US,94,1666653894
Ushuaia,-54.8,-68.3,53.26,75,29.93,AR,32,1666653849
Butaritari,3.0707,172.7902,81.64,49,14.97,KI,73,1666653910
Ribeira Grande,38.5167,-28.7,63.77,92,3.0,PT,67,1666653902
Kyaikkami,16.08,97.5675,77.34,36,9.13,MM,87,1666654098
Saint Paul Harbor,57.79,-152.4072,47.71,40,23.02,US,61,1666653950
Vaini,-21.2,-175.2,75.36,20,13.8,TO,60,1666653875
Otavi,-19.65,17.3333,80.13,88,3.98,NA,31,1666654099
Hamilton,39.1834,-84.5333,71.82,75,10.36,US,40,1666653871
Florestópolis,-22.8633,-51.3872,73.62,5,4.25,BR,55,1666654099
Westport,41.1415,-73.3579,62.28,100,10.36,US,90,1666653979
Abu Samrah,35.3029,37.1841,66.27,0,4.12,SY,43,1666654068
Busselton,-33.65,115.3333,58.17,100,10.16,AU,70,1666653904
Khatanga,71.9667,102.5,-9.65,31,2.59,RU,100,1666653948
Tiko,4.0745,9.3699,77.58,100,1.72,CM,91,1666654100
Thinadhoo,0.5333,72.9333,81.63,49,8.68,MV,76,1666653974
Hilo,19.7297,-155.09,82.26,75,11.5,US,73,1666653875
Bluff,-46.6,168.3333,52.81,0,4.59,NZ,51,1666653892
Amuntai,-2.4177,115.2494,75.15,100,0.85,ID,96,1666653905
Great Yarmouth,52.6083,1.7305,55.45,65,17.58,GB,86,1666654101
Springfield,37.2153,-93.2982,65.91,100,4.0,US,93,1666653670
Ponta do Sol,32.6667,-17.1,72.01,100,9.33,PT,90,1666653986
Tokur,53.1333,132.9,24.75,100,4.29,RU,65,1666654101
Bolshevik,54.0065,27.5692,46.02,100,4.18,BY,95,1666654102
Hithadhoo,-0.6,73.0833,81.77,30,6.02,MV,75,1666653678
Punta Arenas,-53.15,-70.9167,41.11,75,40.29,CL,75,1666653932
Maragogi,-9.0122,-35.2225,77.2,18,12.01,BR,83,1666654102
Aripuanã,-9.1667,-60.6333,75.42,98,0.31,BR,90,1666654103
San Andrés,12.5847,-81.7006,78.82,75,4.61,CO,94,1666654103
San Francisco,37.7749,-122.4194,77.83,20,14.97,US,43,1666653855
Khandyga,62.6667,135.6,24.62,100,11.68,RU,94,1666654013
Manbij,36.5281,37.9549,63.07,0,5.79,SY,35,1666654104
Chokurdakh,70.6333,147.9167,0.05,59,5.82,RU,85,1666653928
Klaksvík,62.2266,-6.589,52.72,100,20.31,FO,94,1666653973
Rikitea,-23.1203,-134.9692,73.51,0,15.08,PF,75,1666653896
Sangar,63.9242,127.4739,23.2,100,12.93,RU,93,1666654104
Egvekinot,66.3167,-179.1667,14.13,99,1.72,RU,93,1666654105
Sobolevo,54.4299,31.8996,40.06,100,5.19,RU,85,1666654062
Chapais,49.7834,-74.8492,51.58,7,5.64,CA,75,1666654105
Norman Wells,65.282,-126.8329,23.04,100,5.75,CA,93,1666653985
Uromi,6.7,6.3333,71.08,99,5.12,NG,97,1666654106
Hobart,-42.8794,147.3294,59.25,75,5.75,AU,94,1666653686
Adrar,20.5022,-10.0711,84.51,100,8.97,MR,17,1666654051
Opuwo,-18.0607,13.84,72.43,75,4.65,NA,35,1666654106
Tagusao,9.1924,117.8141,80.64,82,2.66,PH,80,1666654106
Kapaa,22.0752,-159.319,83.1,40,12.66,US,76,1666653899
New Norfolk,-42.7826,147.0587,59.72,100,1.01,AU,87,1666653904
Chicama,-7.8447,-79.1469,59.54,98,7.9,PE,73,1666654107
Kavaratti,10.5669,72.642,81.5,5,3.6,IN,69,1666653898
Kimberley,-28.7323,24.7623,65.89,19,12.66,ZA,63,1666654107
Sajanan,37.0573,9.2426,58.12,59,1.66,TN,38,1666654108
Comodoro Rivadavia,-45.8667,-67.5,67.86,0,17.27,AR,26,1666654037
Middelfart,55.5059,9.7305,56.1,100,20.02,DK,87,1666654108
Castro,-24.7911,-50.0119,62.37,11,6.73,BR,82,1666653921
Vardø,70.3705,31.1107,31.98,100,6.91,NO,74,1666654073
Lar,26.2039,83.9717,68.11,1,5.14,IN,72,1666654109
Cape Town,-33.9258,18.4232,65.08,75,13.8,ZA,71,1666653803
Constitución,-35.3333,-72.4167,55.47,74,10.78,CL,80,1666654109
Saint George,37.1041,-113.5841,60.44,0,10.36,US,28,1666653908
Bonavista,48.6499,-53.1147,48.99,100,5.57,CA,67,1666654007
George Town,5.4112,100.3354,79.9,20,3.44,MY,89,1666653666
Qaanaaq,77.484,-69.3632,15.24,53,8.95,GL,75,1666653902
Province of Mantua,45.1667,10.7833,67.24,72,5.99,IT,88,1666654110
Tuatapere,-46.1333,167.6833,56.01,1,3.85,NZ,39,1666653909
Ouadda,8.0777,22.4007,68.13,22,3.42,CF,63,1666654111
Korla,41.7597,86.1469,49.26,37,8.72,CN,46,1666654111
Hong Kong,22.2855,114.1577,75.25,40,11.99,HK,63,1666653903
Barrow,71.2906,-156.7887,21.22,100,23.02,US,93,1666653893
Ballina,-28.8667,153.5667,77.77,99,5.32,AU,66,1666653954
Gizo Government Station,-8.103,156.8419,84.34,35,2.13,SB,67,1666654059
Enid,36.3956,-97.8784,53.76,100,11.5,US,80,1666653895
Zalukokoazhe,43.9039,43.2156,48.36,81,12.35,RU,76,1666654112
Rehoboth,-23.3167,17.0833,74.93,9,6.62,NA,19,1666654112
Nikolskoye,59.7035,30.7861,26.49,94,2.68,RU,87,1666653917
Río Gallegos,-51.6226,-69.2181,55.45,40,25.32,AR,24,1666654113
Cherskiy,68.75,161.3,-1.55,48,9.71,RU,93,1666653894
Narsaq,60.9167,-46.05,26.96,100,5.68,GL,91,1666653977
Bethel,41.3712,-73.414,60.67,100,1.99,US,88,1666653993
Urubichá,-15.3833,-62.95,79.25,79,1.63,BO,66,1666654113
Neuquén,-38.9516,-68.0591,71.49,0,0.0,AR,35,1666654114
Behshahr,36.6923,53.5526,65.44,92,1.52,IR,87,1666654114
Geraldton,-28.7667,114.6,66.61,75,12.66,AU,59,1666653892
Dikson,73.5069,80.5464,27.55,100,21.61,RU,74,1666653914
Ca Mau,9.1769,105.15,74.77,100,2.84,VN,96,1666653702
Uvira,-3.4067,29.1458,75.94,46,3.67,CD,63,1666654115
Mill Valley,37.906,-122.545,78.04,5,4.0,US,51,1666653855
Sisimiut,66.9395,-53.6735,32.7,100,8.03,GL,99,1666654115
Vuktyl,63.8567,57.3094,28.89,97,5.97,RU,97,1666654115
Yellowknife,62.456,-114.3525,28.92,75,9.22,CA,80,1666653897
Adré,13.4667,22.2,76.6,15,13.33,TD,26,1666653950
Saldanha,-33.0117,17.9442,55.45,60,17.56,ZA,85,1666653970
Phan Thiet,10.9333,108.1,75.87,99,1.83,VN,86,1666654019
Fengrun,39.8333,118.1167,48.56,0,4.36,CN,82,1666654116
Perth,-31.9333,115.8333,59.86,75,12.66,AU,94,1666653904
Baruun-Urt,46.6806,113.2792,34.56,2,9.69,MN,69,1666653941
Deputatsky,69.3,139.9,4.35,100,3.04,RU,93,1666654032
Torbay,47.6666,-52.7314,47.5,75,5.01,CA,93,1666653755
Mokrous,51.2333,47.5167,44.37,100,8.75,RU,94,1666654117
Cochrane,51.1834,-114.4687,42.49,75,14.97,CA,55,1666654102
Severo-Kuril'sk,50.6789,156.125,39.13,87,15.17,RU,61,1666653839
Lavrentiya,65.5833,-171.0,24.8,11,5.17,RU,73,1666654008
Yamada,39.4667,141.95,50.72,78,10.65,JP,73,1666654118
Clyde River,70.4692,-68.5914,12.43,0,4.61,CA,62,1666653908
São João del Rei,-21.1356,-44.2617,63.84,68,2.68,BR,90,1666654080
Kalino,58.2504,57.6085,32.76,100,9.84,RU,89,1666654118
Puerto Ayora,-0.7393,-90.3518,73.36,100,8.99,EC,89,1666653918
Atuona,-9.8,-139.0333,76.93,0,16.51,PF,67,1666653896
Jamestown,42.097,-79.2353,61.02,10,1.01,US,78,1666653934
Aklavik,68.2191,-135.0107,8.6,40,2.3,CA,85,1666653989
Tiksi,71.6872,128.8694,18.01,100,4.54,RU,95,1666653939
Sembakung,3.8167,117.25,74.44,88,1.03,ID,96,1666654119
Nieuw Amsterdam,5.8833,-55.0833,84.36,20,4.61,SR,82,1666654119
Lorengau,-2.0226,147.2712,84.92,94,4.0,PG,65,1666654009
El Alto,-4.2714,-81.2147,62.26,87,19.69,PE,78,1666654120
Churapcha,62.0025,132.4325,25.23,97,15.48,RU,90,1666654120
Mar del Plata,-38.0023,-57.5575,63.09,0,18.99,AR,89,1666653793
Madison,34.7334,-86.5667,72.37,83,5.99,US,42,1666653302
Tongliao,43.6125,122.2653,43.29,0,15.99,CN,60,1666654121
Saint-Philippe,-21.3585,55.7679,71.19,36,6.55,RE,82,1666653906
São Filipe,14.8961,-24.4956,77.32,10,4.94,CV,76,1666654039
Esperance,-33.8667,121.9,57.85,100,9.26,AU,88,1666653972
Namatanai,-3.6667,152.4333,85.41,41,2.82,PG,67,1666653961
Nanortalik,60.1432,-45.2371,32.94,93,8.63,GL,83,1666653934
Mayumba,-3.432,10.6554,73.65,100,5.55,GA,95,1666654122
Hasaki,35.7333,140.8333,54.21,100,23.8,JP,72,1666653936
Otukpo,7.1913,8.1329,74.17,95,8.43,NG,94,1666653916
Ilo,-17.6394,-71.3375,60.98,40,3.87,PE,82,1666654122
Avarua,-21.2078,-159.775,71.65,100,11.5,CK,94,1666653934
Esim,4.8699,-2.2405,78.44,38,5.26,GH,87,1666654123
East London,-33.0153,27.9116,68.4,51,12.08,ZA,89,1666653946
Filoti,37.05,25.5,63.32,0,13.02,GR,68,1666654123
Solnechnyy,50.7214,136.6319,32.56,5,4.52,RU,62,1666654124
Sept-Îles,50.2001,-66.3821,46.4,75,4.61,CA,93,1666653902
Manokwari,-0.8667,134.0833,81.0,100,5.99,ID,77,1666653901
Bairiki Village,1.3292,172.9752,86.0,20,9.22,KI,70,1666654124
Bac Lieu,9.285,105.7244,77.88,100,6.6,VN,88,1666654124
Nyurba,63.2842,118.3319,27.59,100,13.85,RU,79,1666654125
Port Alfred,-33.5906,26.891,67.42,5,10.85,ZA,91,1666653999
Carutapera,-1.195,-46.02,79.34,54,9.01,BR,76,1666654125
Lebu,-37.6167,-73.65,54.23,30,2.46,CL,90,1666653903
Nacala,-14.5428,40.6728,74.35,7,9.48,MZ,86,1666654126
Yahotyn,50.2798,31.7625,51.71,100,6.33,UA,90,1666654126
Erzin,36.9559,36.2,66.81,0,4.03,TR,33,1666654126
Vellmar,51.3581,9.4797,58.82,40,0.0,DE,87,1666654127
Bariloche,-41.1456,-71.3082,53.35,75,14.97,AR,54,1666653970
Dingle,10.9995,122.6711,78.98,76,4.72,PH,88,1666654095
Ust-Tsilma,65.441,52.1498,23.95,48,6.55,RU,92,1666654127
Atambua,-9.1061,124.8925,78.67,100,1.19,ID,78,1666654127
Carnarvon,-24.8667,113.6333,64.6,0,20.36,AU,61,1666653949
Uyskoye,54.3775,60.0047,36.73,100,16.46,RU,74,1666654128
Novopavlovka,51.2172,109.2091,27.46,99,6.49,RU,66,1666654129
Airai,-8.9266,125.4092,67.14,100,0.25,TL,72,1666653946
Pedernales,18.0384,-71.744,81.18,100,3.44,DO,73,1666654129
Grindavik,63.8424,-22.4338,42.75,100,6.91,IS,93,1666653879
Chui,-33.6971,-53.4616,56.62,15,7.52,UY,90,1666653891
Nizhniy Kuranakh,58.8353,125.4869,23.22,100,9.4,RU,90,1666654130
Jobat,22.4167,74.5667,68.83,0,3.65,IN,41,1666654130
Thompson,55.7435,-97.8558,30.36,100,19.57,CA,93,1666653910
Bredasdorp,-34.5322,20.0403,61.47,99,4.5,ZA,85,1666653911
Dunedin,-45.8742,170.5036,54.81,3,3.0,NZ,61,1666653973
Javānrūd,34.7961,46.5172,54.99,12,3.24,IR,54,1666654131
Ilulissat,69.2167,-51.1,25.84,100,4.83,GL,87,1666654013
Fairbanks,64.8378,-147.7164,29.61,20,0.0,US,84,1666653930
Cartagena,10.3997,-75.5144,83.82,40,3.44,CO,79,1666654055
Mareeba,-17.0,145.4333,86.43,2,4.47,AU,68,1666654013
Luganville,-15.5333,167.1667,82.47,51,4.76,VU,73,1666654132
Longyearbyen,78.2186,15.6401,21.04,75,11.5,SJ,73,1666653942
Rrëshen,41.7675,19.8756,52.88,82,2.98,AL,59,1666654133
Riyadh,24.6877,46.7219,68.14,0,6.4,SA,17,1666653752
Tutóia,-2.7619,-42.2744,80.02,8,12.84,BR,79,1666653940
Karratha,-20.7377,116.8463,73.06,0,12.15,AU,34,1666654073
Christchurch,-43.5333,172.6333,55.42,75,9.22,NZ,62,1666654101
Mouila,-1.8685,11.0559,72.28,100,1.25,GA,99,1666654134
Thabazimbi,-24.5917,27.4116,68.54,77,0.34,ZA,73,1666654134
Kidal,18.4411,1.4078,78.93,56,10.33,ML,17,1666653899
Uglovskoye,51.3557,80.1942,28.6,0,6.22,RU,63,1666654021
Nālūt,30.3333,10.85,67.44,0,8.72,LY,28,1666654135
Bandundu Province,-3.3167,17.3667,71.94,100,3.27,CD,93,1666654135
La Asuncion,11.0333,-63.8628,80.8,54,9.51,VE,85,1666654015
Kankan,10.3854,-9.3057,74.79,100,4.07,GN,84,1666654136
Saskylakh,71.9167,114.0833,11.71,100,10.58,RU,95,1666653941
Codrington,-38.2667,141.9667,62.26,100,5.66,AU,94,1666653905
Angoram,-4.0625,144.0661,81.9,98,3.22,PG,78,1666654137
Moyo,3.6609,31.7247,67.12,79,4.16,UG,87,1666654137
Meulaboh,4.1363,96.1285,77.41,99,6.96,ID,87,1666654039
Toamasina,-18.1667,49.3833,69.8,40,4.61,MG,94,1666654137
Mahébourg,-20.4081,57.7,71.89,40,3.44,MU,78,1666653938
High Level,58.5169,-117.136,30.31,100,2.3,CA,100,1666653906
Vostok,46.4856,135.8833,30.69,1,3.49,RU,60,1666653881
Guangyuan,32.442,105.823,58.51,100,1.59,CN,94,1666654138
Bucecea,47.7667,26.4333,62.47,0,4.61,RO,80,1666654138
Talnakh,69.4865,88.3972,24.21,100,7.94,RU,96,1666653939
Tuktoyaktuk,69.4541,-133.0374,17.6,75,0.0,CA,79,1666653916
Leer,8.3018,30.1418,73.8,6,2.28,SS,83,1666653919
Souillac,-20.5167,57.5167,71.98,40,3.44,MU,78,1666653933
Murray Bridge,-35.1167,139.2667,65.12,100,10.13,AU,87,1666654139
Vernon,50.2581,-119.2691,55.62,100,5.01,CA,70,1666654140
Goderich,43.7501,-81.7165,66.52,77,10.36,CA,48,1666653921
Isangel,-19.55,169.2667,82.51,75,11.5,VU,69,1666654140
Sīkar,27.6167,75.15,68.5,0,2.84,IN,28,1666654141
Mamontovo,52.7055,81.6244,28.27,4,6.71,RU,64,1666654141
Thaba-Tseka,-29.522,28.6084,54.7,100,4.83,LS,67,1666654141
Tasiilaq,65.6145,-37.6368,33.69,100,19.51,GL,94,1666653978
Udachny,66.4167,112.4,13.55,83,20.07,RU,85,1666654142
Sørland,67.667,12.6934,41.81,58,19.1,NO,61,1666654042
Caravelas,-17.7125,-39.2481,72.14,100,8.12,BR,94,1666653982
Boueni,-12.9025,45.0761,76.98,9,11.45,YT,83,1666654143
Talcahuano,-36.7167,-73.1167,58.68,0,8.05,CL,72,1666654143
Kaitangata,-46.2817,169.8464,52.86,0,6.17,NZ,46,1666653992
Cametá,-2.2444,-49.4958,82.94,54,6.06,BR,72,1666654144
Panalingaan,8.7842,117.4231,80.13,70,1.52,PH,83,1666654144
Berdigestyakh,62.0989,126.6992,23.72,100,13.4,RU,88,1666654145
Bilibino,68.0546,166.4372,-10.17,44,3.15,RU,98,1666653998
Upernavik,72.7868,-56.1549,27.16,100,6.17,GL,94,1666653926
Kiryat Gat,31.61,34.7642,67.82,15,4.88,IL,74,1666653964
Belen,36.4891,36.2233,50.14,0,1.14,TR,77,1666653906
Fortuna,40.5982,-124.1573,61.36,100,5.75,US,100,1666653957
Ati,13.2154,18.3353,87.28,11,16.91,TD,19,1666654146
Husavik,66.0449,-17.3389,29.28,79,10.38,IS,81,1666654073
Santo Antônio do Sudoeste,-26.0736,-53.7253,62.33,0,3.98,BR,81,1666654147
Marawi,7.9986,124.2928,72.01,99,0.94,PH,89,1666653840
Alofi,-19.0595,-169.9187,78.69,40,13.8,NU,53,1666654002
Puerto Carreño,6.189,-67.4859,76.98,20,2.3,CO,94,1666654148
Salalah,17.0151,54.0924,77.09,20,4.61,OM,78,1666653994
Garissa,-0.4536,39.6401,75.81,5,15.21,KE,76,1666654148
Malpe,13.35,74.7167,74.5,1,4.36,IN,77,1666654149
Plouzané,48.3833,-4.6167,57.52,100,11.5,FR,94,1666654150
Ostrovnoy,68.0531,39.5131,32.76,98,9.37,RU,86,1666653941
Nome,64.5011,-165.4064,35.67,100,14.97,US,65,1666654033
Concordia,-31.393,-58.0209,70.79,51,6.58,AR,65,1666654151
Antofagasta,-23.65,-70.4,60.08,39,5.61,CL,78,1666653785
Kikwit,-5.041,18.8162,69.69,100,1.92,CD,95,1666654152
Campbellsville,37.3434,-85.3419,71.71,67,6.42,US,26,1666654101
San Fernando,15.0286,120.6898,83.93,95,3.85,PH,86,1666654152
Sabha,27.0377,14.4283,65.89,0,9.42,LY,35,1666654153
Harrismith,-28.2728,29.1295,55.42,98,0.76,ZA,91,1666654153
Eilat,29.5581,34.9482,71.44,88,11.5,IL,60,1666654153
Rioblanco,3.5308,-75.6806,64.36,94,2.04,CO,93,1666654154
Port Elizabeth,-33.918,25.5701,66.31,75,11.01,ZA,97,1666653924
Eenhana,-17.4667,16.3333,80.69,66,10.2,NA,35,1666654154
Dehlorān,32.6941,47.2679,78.39,97,2.57,IR,24,1666654155
Bilma,18.6853,12.9164,78.6,29,15.82,NE,20,1666654014
San Cristobal,7.7669,-72.225,75.38,95,3.87,VE,94,1666653951
Vitim,59.4511,112.5578,29.41,100,13.02,RU,73,1666653959
Pedersore,63.65,22.6833,33.89,99,7.56,FI,80,1666654156
Birao,10.2849,22.7882,72.3,11,5.39,CF,38,1666654156
Port Hueneme,34.1478,-119.1951,81.32,0,19.57,US,28,1666654157
Smithers,54.7804,-127.1743,44.92,75,14.97,CA,53,1666654158
Murmansk Oblast,68.0,34.0,27.34,100,2.95,RU,96,1666654067
Mossamedes,-15.1961,12.1522,70.03,82,3.49,AO,80,1666653990
Worland,44.0169,-107.9554,48.88,0,9.22,US,50,1666654158
Le Port,-20.9373,55.2919,71.6,14,7.63,RE,72,1666654159
Panama City,8.9936,-79.5197,77.43,40,5.75,PA,91,1666653868
Bandarbeyla,9.4942,50.8122,77.23,92,4.74,SO,86,1666653827
Tabou,4.423,-7.3528,77.14,17,7.16,CI,90,1666653954
Provideniya,64.3833,-173.3,24.91,50,4.47,RU,63,1666653909
Kalakamati,-20.5929,27.3121,66.18,81,4.03,BW,63,1666654160
Alta Floresta,-9.8756,-56.0861,70.74,98,2.44,BR,98,1666654161
Beringovskiy,63.05,179.3167,28.49,80,2.51,RU,71,1666654161
Córdoba,-31.4135,-64.1811,82.76,0,12.66,AR,37,1666654162
San Vicente,-26.6167,-54.1333,59.65,0,3.51,AR,85,1666654162
Lompoc,34.6391,-120.4579,75.78,0,12.66,US,29,1666654017
Mamou,10.5,-12.0,67.96,99,2.64,GN,94,1666654163
Pangnirtung,66.1451,-65.7125,12.67,5,13.31,CA,77,1666653942
Baharly,38.4362,57.4316,61.43,100,6.46,TM,69,1666654163
Tarko-Sale,64.9225,77.785,30.18,100,7.61,RU,97,1666654164
Cedar City,37.6775,-113.0619,41.97,0,0.0,US,52,1666653984
Saint Anthony,45.0205,-93.218,48.88,100,8.05,US,87,1666653895
Olafsvik,64.8945,-23.7142,40.87,93,12.39,IS,75,1666654000
Vila,42.0304,-8.1588,52.68,100,4.5,PT,94,1666654165
Vila Velha,-20.3297,-40.2925,73.35,75,5.75,BR,86,1666653897
Leningradskiy,69.3833,178.4167,9.12,98,5.44,RU,94,1666653974
Alugan,12.2188,125.4808,81.18,100,3.83,PH,83,1666654165
San Patricio,28.017,-97.5169,84.29,87,18.3,US,72,1666654166
Coro,11.4045,-69.6734,81.01,92,10.89,VE,83,1666654166
Asău,46.4333,26.4,49.28,91,5.5,RO,78,1666653987
Bambous Virieux,-20.3428,57.7575,71.85,40,3.44,MU,78,1666653904
Avilés,43.5547,-5.9248,64.38,0,3.44,ES,85,1666654167
Buala,-8.145,159.5921,84.83,27,3.8,SB,69,1666653910
Labuan,5.2767,115.2417,79.16,20,1.14,MY,94,1666654168
Ballitoville,-29.539,31.2144,69.24,0,1.14,ZA,88,1666654168
Makakilo City,21.3469,-158.0858,88.12,20,16.11,US,53,1666654034
Jablah,35.3614,35.9256,62.89,0,5.75,SY,77,1666654169
Anadyr,64.75,177.4833,16.3,0,4.47,RU,72,1666654169
Olavarría,-36.8927,-60.3225,73.02,7,7.02,AR,58,1666654170
Sibolga,1.7427,98.7792,75.42,99,2.33,ID,88,1666654170
Petaluma,38.2324,-122.6367,78.75,0,11.5,US,26,1666654171
Ancud,-41.8697,-73.8203,51.96,92,8.19,CL,92,1666653981
Terney,45.0503,136.6092,39.56,0,7.43,RU,55,1666654171
Bataysk,47.1398,39.7518,50.88,85,6.35,RU,83,1666654172
Margate,51.3813,1.3862,56.3,70,3.0,GB,88,1666654172
Chinhoyi,-17.3667,30.2,72.07,96,4.43,ZW,55,1666654173
Half Moon Bay,37.4636,-122.4286,78.58,0,14.97,US,44,1666654173
Pathein,16.7833,94.7333,75.6,100,4.72,MM,93,1666654173
Ust'-Ilimsk,58.0006,102.6619,30.2,100,12.53,RU,71,1666654174
Ambulu,-8.345,113.6058,77.18,91,3.67,ID,90,1666654012
Gürsu,40.2188,29.1949,44.26,2,3.36,TR,57,1666654174
Port Blair,11.6667,92.75,79.88,92,5.97,IN,82,1666654005
Pisco,-13.7,-76.2167,62.65,0,19.57,PE,77,1666653892
Mayo,38.8876,-76.5119,61.5,100,3.44,US,93,1666654175
Paramonga,-10.6667,-77.8333,63.09,97,7.76,PE,81,1666654176
Calvinia,-31.4707,19.776,57.58,88,6.64,ZA,66,1666653947
Camacha,33.0833,-16.3333,65.62,40,5.75,PT,94,1666654176
Salamiyah,35.0113,37.0532,66.52,0,4.88,SY,47,1666654176
Mitsamiouli,-11.3847,43.2844,75.74,4,9.53,KM,78,1666654177
Prince Rupert,54.3161,-130.3201,50.09,20,19.57,CA,69,1666653725
Arkadak,51.9326,43.4978,43.52,100,9.51,RU,86,1666654178
Ugoofaaru,5.6667,73.0,80.89,75,14.83,MV,81,1666654178
Rosetta,31.4044,30.4164,68.47,0,6.4,EG,67,1666654058
Lüderitz,-26.6481,15.1594,61.18,100,13.56,NA,80,1666653895
Presque Isle,46.6811,-68.0159,54.18,100,0.0,US,86,1666653886
Mgandu,-5.95,34.1333,66.87,37,9.26,TZ,55,1666654179
Aden,12.7794,45.0367,82.94,6,11.05,YE,60,1666654179
Marondera,-18.1853,31.5519,66.6,96,3.13,ZW,52,1666654180
Prieska,-29.6641,22.7474,72.75,35,10.65,ZA,30,1666654180
Novochernorechenskiy,56.2669,91.0828,29.19,91,12.15,RU,70,1666654181
Bhāyāvadar,21.85,70.25,74.68,0,6.62,IN,65,1666653972
Stornoway,58.2093,-6.3865,53.56,75,11.5,GB,93,1666654181
Coahuayana Viejo,18.7333,-103.6833,83.07,99,4.34,MX,77,1666653927
Helmbrechts,50.2356,11.7159,53.01,75,11.5,DE,99,1666654182
Verkhnyaya Inta,65.9811,60.3094,24.24,100,8.84,RU,95,1666654183
Vallenar,-28.5708,-70.7581,69.82,0,4.92,CL,39,1666654183
Markova,48.6758,24.4138,55.69,100,3.38,UA,86,1666654183
Ixtapa,20.7,-105.2,84.22,75,9.22,MX,83,1666654035
Ishigaki,24.3448,124.1572,73.53,75,19.57,JP,64,1666654184
Bonnyville,54.2668,-110.735,38.52,100,4.12,CA,45,1666653921
Faanui,-16.4833,-151.75,79.14,93,16.75,PF,77,1666653953
Nyköping,58.753,17.0079,53.46,100,6.91,SE,100,1666654102
Los Llanos de Aridane,28.6585,-17.9182,66.13,0,5.75,ES,74,1666653734
Bom Jesus do Itabapoana,-21.1339,-41.6797,70.7,61,3.96,BR,94,1666654185
Atar,20.5169,-13.0499,84.45,93,13.85,MR,43,1666654044
Athabasca,54.7169,-113.2854,34.21,100,5.64,CA,53,1666654185
Omboué,-1.5746,9.2618,73.62,99,3.42,GA,94,1666654186
Nouadhibou,20.931,-17.0347,69.62,0,12.37,MR,88,1666654061
Nekā,36.6508,53.299,64.24,93,2.91,IR,85,1666654186
Cidreira,-30.1811,-50.2056,63.61,7,9.89,BR,80,1666654023
Halifax,44.6453,-63.5724,57.69,100,9.22,CA,95,1666653962
Saint-André-Avellin,45.7168,-75.066,57.69,0,5.28,CA,91,1666654187
The Valley,18.217,-63.0578,83.1,20,8.05,AI,83,1666654187
Katsuura,35.1333,140.3,55.85,100,22.57,JP,83,1666653682
La Santisima Trinidad,-14.8333,-64.9,87.78,40,0.0,BO,62,1666654187
Okhotsk,59.3833,143.3,19.44,65,4.99,RU,52,1666653893
Kenai,60.5544,-151.2583,41.14,0,3.44,US,51,1666654188
Lixouri,38.2019,20.4314,70.81,2,0.65,GR,55,1666654188
Kholm,59.2667,32.85,31.28,99,2.8,RU,89,1666654189
Palmer,42.1584,-72.3287,57.99,100,3.44,US,85,1666654003
Port Lincoln,-34.7333,135.8667,59.94,92,10.89,AU,82,1666653968
Fort Nelson,58.8053,-122.7002,26.19,100,9.22,CA,86,1666653978
Pevek,69.7008,170.3133,2.61,55,6.73,RU,96,1666653899
Moorhead,46.8739,-96.7676,44.62,100,18.41,US,68,1666653980
Jijiga,9.35,42.8,66.33,91,4.81,ET,73,1666654190
Montrose,38.4166,-108.2673,31.41,55,8.86,US,52,1666654190
Kalmar,56.6616,16.3616,56.14,100,5.75,SE,100,1666654191
El Salvador,13.8333,-88.9167,77.4,26,2.84,SV,92,1666654191
Banda Aceh,5.5577,95.3222,78.98,99,6.71,ID,84,1666654072
Coyhaique,-45.5752,-72.0662,51.75,75,0.0,CL,66,1666654019
Malanje,-9.5402,16.341,64.92,97,3.33,AO,91,1666654192
Shimoda,34.6667,138.95,57.56,100,26.64,JP,83,1666654192
Lodja,-3.4833,23.4333,69.44,99,0.09,CD,98,1666654193
Bom Jesus,-9.0744,-44.3586,79.3,57,2.89,BR,63,1666654193
Ahipara,-35.1667,173.1667,63.95,100,1.52,NZ,56,1666654031
Wajima,37.4,136.9,50.68,75,10.36,JP,93,1666654194
Grafton,42.207,-71.6856,58.12,100,5.75,US,91,1666654194
Mehamn,71.0357,27.8492,37.35,75,10.36,NO,81,1666653909
San Jose,37.3394,-121.895,78.53,20,10.36,US,21,1666654079
Palāsa,18.7667,84.4167,72.66,70,3.51,IN,74,1666654195
Teahupoo,-17.8333,-149.2667,78.76,60,24.29,PF,82,1666654196
Bambanglipuro,-7.95,110.2833,76.55,98,1.86,ID,88,1666653952
Talaya,61.3833,152.75,-3.42,24,3.49,RU,87,1666654196
Pacific Grove,36.6177,-121.9166,72.25,0,4.61,US,55,1666653973
Jāmtāra,23.95,86.8,66.65,99,4.25,IN,93,1666654197
Durban,-29.8579,31.0292,70.02,98,4.0,ZA,94,1666654009
Harlingen,26.1906,-97.6961,85.05,20,17.27,US,81,1666653963
Macao,22.2006,113.5461,75.85,0,17.27,MO,73,1666654198
Agadir,30.4202,-9.5982,81.05,21,12.39,MA,21,1666653921
Jacqueville,5.2052,-4.4146,78.69,82,7.23,CI,86,1666654199
Sipoo,60.3775,25.2691,35.17,20,1.14,FI,86,1666654199
Sinnamary,5.3833,-52.95,81.32,100,10.87,GF,84,1666653996
Shebunino,46.4339,141.8603,45.37,51,8.25,RU,54,1666654200
Broome,42.2506,-75.833,61.7,100,3.0,US,90,1666654022
Kavieng,-2.5744,150.7967,84.13,67,3.74,PG,68,1666653929
Yichang,30.7144,111.2847,60.42,100,0.56,CN,83,1666654201
Gaza,31.5,34.4667,74.17,23,13.94,PS,71,1666654201
College,64.8569,-147.8028,29.59,20,0.0,US,83,1666654202
Marquette,46.5333,-87.6335,59.77,100,14.38,US,75,1666654202
Te Anau,-45.4167,167.7167,50.59,11,2.37,NZ,51,1666654002
Itarema,-2.9248,-39.9167,78.94,3,15.84,BR,82,1666653920
Itatinga,-23.1017,-48.6158,62.24,0,9.13,BR,84,1666654204
Carballo,43.213,-8.691,62.76,100,5.61,ES,91,1666654205
Mergen,49.1833,125.2167,38.23,14,17.22,CN,47,1666654206
Yurovka,45.1147,37.4188,51.3,40,2.24,RU,87,1666654206
Bataiporã,-22.2953,-53.2711,71.98,0,4.14,BR,68,1666654207
Santa Isabel Rio Negro,-0.4139,-65.0192,75.67,100,2.13,BR,97,1666654208
Kapiri Mposhi,-13.9652,28.6809,70.93,97,2.59,ZM,44,1666654208
Sechura,-5.5569,-80.8222,64.4,100,15.95,PE,72,1666654209
Khonsa,27.0167,95.5667,60.85,100,1.59,IN,100,1666654209
Karla,59.3723,24.9275,35.98,0,6.91,EE,89,1666654210
Kosh-Agach,50.0,88.6667,17.73,0,2.55,RU,59,1666654210
Zeerust,-25.5369,26.0751,63.95,59,5.97,ZA,78,1666654211
Tayu,-6.5397,111.0518,79.77,100,5.55,ID,81,1666654211
Monaghan,54.25,-6.9667,51.39,62,9.48,IE,98,1666654211
Bossangoa,6.4926,17.4552,70.41,94,2.15,CF,88,1666654212
Dolores,-36.3132,-57.6792,57.16,7,11.16,AR,93,1666653975
Ambon City,-3.6954,128.1814,84.34,20,3.44,ID,79,1666653953
Paamiut,61.994,-49.6678,34.36,96,24.23,GL,78,1666654030
Sandwick,60.0,-1.25,51.62,100,8.05,GB,100,1666654213
Santa Cruz de Barahona,18.2085,-71.1008,80.42,40,9.22,DO,83,1666654214
Yangi Marg`ilon,40.4272,71.7189,50.72,100,2.3,UZ,93,1666653994
Sola,-13.8833,167.55,84.87,80,0.0,VU,74,1666654062
Bocas del Toro,9.3333,-82.25,80.53,96,6.26,PA,80,1666653977
Madang,-5.2246,145.7966,87.01,99,1.41,PG,58,1666654215
San Quintín,30.4833,-115.95,68.85,0,10.54,MX,51,1666654034
Człuchów,53.6672,17.3588,53.22,92,7.45,PL,95,1666654216
Camopi,3.1655,-52.3158,76.12,100,3.53,GF,77,1666654216
Nelson Bay,-32.7167,152.15,70.0,29,1.99,AU,89,1666654062
Belvidere,42.2639,-88.8443,73.51,100,21.07,US,62,1666654049
Kurchum,48.5722,83.6542,31.75,0,4.74,KZ,52,1666654218
Benguela,-12.5763,13.4055,75.76,94,8.34,AO,83,1666654031
Safi,32.2994,-9.2372,73.83,67,7.31,MA,41,1666654062
Mayor Pablo Lagerenza,-19.9309,-60.7718,81.91,0,5.53,PY,38,1666654218
Barentu,15.1139,37.5928,75.97,32,2.39,ER,55,1666654219
Dudinka,69.4058,86.1778,24.62,100,7.34,RU,96,1666654220
Puksoozero,62.5903,40.6066,27.81,59,4.63,RU,98,1666654220
Necochea,-38.5473,-58.7368,66.25,93,13.98,AR,50,1666654221
Estevan,49.1334,-102.9842,32.34,100,25.32,CA,93,1666654017
Namwala,-15.7504,26.4384,77.32,91,3.42,ZM,38,1666654221
Galion,40.7337,-82.7899,67.14,82,8.34,US,50,1666653934
Gudāri,19.35,83.7833,66.22,59,3.04,IN,94,1666654222
Kantang,7.4054,99.5156,77.09,100,0.0,TH,100,1666654222
Hambantota,6.1241,81.1185,77.54,85,10.92,LK,84,1666654010
Finschhafen,-6.6024,147.8681,84.79,81,3.29,PG,67,1666654223
Yulara,-25.2406,130.9889,70.65,100,13.62,AU,59,1666653997
Collie,-33.3667,116.15,55.13,73,5.17,AU,88,1666654223
Berlevåg,70.8578,29.0864,37.4,100,19.57,NO,80,1666654224
Tymovskoye,50.8456,142.655,36.91,40,6.53,RU,67,1666654224
Jacareacanga,-6.2222,-57.7528,76.17,80,1.92,BR,88,1666654225
Brikama,13.2714,-16.6494,73.44,75,0.0,GM,94,1666654225
Amapá,1.0,-52.0,78.75,89,2.17,BR,69,1666653747
Aginskoye,51.1,114.53,32.81,99,21.0,RU,57,1666654226
Itoman,26.1247,127.6694,73.42,75,16.11,JP,61,1666654226
Uvarovka,55.5278,35.6061,30.36,39,2.21,RU,79,1666654226
Platteville,42.7342,-90.4785,69.31,100,16.11,US,68,1666654126
Bulungu,-4.55,18.6,70.56,100,2.86,CD,97,1666653948
Mackay,-21.15,149.2,85.68,38,18.48,AU,79,1666654068
Aswān,24.0934,32.907,70.9,0,10.36,EG,35,1666654044
Lata,40.1629,-8.3327,62.08,100,3.94,PT,84,1666653961
Puerto Escondido,15.85,-97.0667,86.83,75,5.75,MX,51,1666654228
Liuzhou,24.3126,109.3892,72.03,11,4.09,CN,38,1666654229
Praia da Vitória,38.7333,-27.0667,61.75,20,10.67,PT,88,1666654229
Bonthe,7.5264,-12.505,76.55,78,3.09,SL,87,1666654229
Anloga,5.7947,0.8973,80.4,98,9.28,GH,80,1666653924
Grand Gaube,-20.0064,57.6608,72.0,5,3.0,MU,71,1666653900
Muromtsevo,56.3724,75.2418,30.33,94,13.58,RU,76,1666654230
Samaná,19.2056,-69.3369,80.56,100,4.68,DO,88,1666654001
Basoko,1.2391,23.616,70.57,75,2.1,CD,92,1666654027
Ambilobe,-13.2,49.05,69.17,25,4.5,MG,80,1666653912
Walvis Bay,-22.9575,14.5053,59.09,1,9.22,NA,94,1666654231
Foso,5.7012,-1.2866,73.29,78,3.06,GH,98,1666654232
Dakar,14.6937,-17.4441,81.48,100,3.78,SN,73,1666654222
Weligama,5.9667,80.4167,75.81,64,5.46,LK,90,1666654232
Kavarna,43.4333,28.3333,58.57,8,9.24,BG,98,1666654232
Xai-Xai,-25.0519,33.6442,71.73,100,3.38,MZ,93,1666654233
Marystown,47.1666,-55.1483,53.49,100,4.27,CA,68,1666654234
Whitehorse,60.7161,-135.0538,29.01,100,9.22,CA,87,1666654037
Trelew,-43.249,-65.3051,71.92,85,6.4,AR,27,1666654026
Port-Gentil,-0.7193,8.7815,78.76,20,6.91,GA,89,1666654047
Sitka,57.0531,-135.33,49.89,100,0.0,US,62,1666653908
Havelock,34.8791,-76.9013,62.56,0,3.44,US,91,1666654061
Amboasary,-25.0333,46.3833,70.11,4,1.23,MG,90,1666654235
Kangāvar,34.5043,47.9653,56.93,82,2.82,IR,35,1666654236
Tautira,-17.7333,-149.15,78.31,50,24.02,PF,82,1666654047
Warmbad,-28.45,18.7333,69.49,83,11.97,NA,40,1666653901
Bucelas,38.9019,-9.1189,65.66,0,6.91,PT,80,1666654236
Bowen,-20.0167,148.2333,82.24,44,16.42,AU,77,1666654046
Araranguá,-28.9347,-49.4858,62.02,16,2.46,BR,89,1666654238
Bjørnevatn,69.6672,29.9847,28.74,40,5.75,NO,93,1666654239
Gore,-46.1028,168.9436,59.29,2,2.68,NZ,38,1666654239
Polyarny,69.1989,33.4478,33.39,99,7.87,RU,74,1666654240
Flinders,-34.5833,150.8552,76.05,91,5.99,AU,90,1666653955
Dzhebariki-Khaya,62.2167,135.8,25.93,100,10.96,RU,95,1666654240
Freeport,40.6576,-73.5832,62.58,100,9.22,US,94,1666654241
Makkah al Mukarramah,21.4267,39.8261,78.94,0,1.97,SA,61,1666654223
Denizli Province,37.8402,29.0698,58.14,0,2.15,TR,50,1666654242
Calamar,10.2511,-74.9146,73.71,100,3.18,CO,96,1666654242
Angoche,-16.2325,39.9086,73.11,4,9.42,MZ,87,1666654242
Chyhyryn,49.0838,32.6555,51.48,98,6.8,UA,87,1666654243
Tete,-16.1564,33.5867,82.11,11,7.36,MZ,46,1666654243
Les Cayes,18.2,-73.75,78.67,100,3.4,HT,80,1666654015
Kudahuvadhoo,2.6708,72.8944,81.63,47,12.08,MV,77,1666654244
Chiang Khong,20.2613,100.4046,70.25,43,1.21,TH,94,1666654244
Santa Inês,-3.6667,-45.38,80.74,95,6.04,BR,73,1666654245
Rafai,4.95,23.9167,69.44,92,1.28,CF,97,1666654246
Port Hardy,50.6996,-127.4199,51.98,40,11.5,CA,71,1666654011
Ashibetsu,43.5097,142.1856,32.81,6,3.47,JP,61,1666654246
Jinchang,38.4953,102.1739,47.66,3,1.5,CN,46,1666654017
Araouane,18.9048,-3.5265,81.59,95,9.95,ML,14,1666654017
Gornopravdinsk,60.05,69.9,32.34,100,13.33,RU,94,1666654045
Florø,61.5996,5.0328,48.96,75,9.22,NO,81,1666654248
Soyo,-6.1349,12.3689,76.59,95,7.63,AO,90,1666654248
Kapoeta,4.7717,33.5903,76.59,14,3.38,SS,62,1666654249
Boddam,57.4667,-1.7833,52.18,82,7.96,GB,84,1666654249
Beesel,51.2683,6.0389,59.27,31,14.09,NL,88,1666654250
Coquimbo,-29.9533,-71.3436,55.13,75,6.91,CL,87,1666653949
Alice Springs,-23.7,133.8833,76.55,88,16.11,AU,33,1666653752
La Rioja,42.25,-2.5,44.38,100,6.69,ES,56,1666654250
Hay River,60.8156,-115.7999,30.18,100,8.05,CA,93,1666653953
Sayyan,15.1718,44.3244,55.78,2,4.52,YE,51,1666654251
Laguna,38.421,-121.4238,78.3,0,1.01,US,20,1666654252
Ceres,37.5949,-120.9577,74.88,0,0.0,US,22,1666654252
Semenivka,52.1783,32.5818,46.98,100,4.72,UA,82,1666654253
Cockburn Town,21.4612,-71.1419,76.96,40,9.22,TC,83,1666654253
Tromsø,69.6496,18.957,30.38,40,1.14,NO,93,1666654254
Pacifica,37.6138,-122.4869,76.82,20,14.97,US,58,1666654234
Cumberland,35.0502,-78.8664,69.49,0,0.0,US,70,1666654238
Begamganj,23.6,78.3333,61.52,0,3.44,IN,60,1666654254
Sioux Lookout,50.1001,-91.917,55.47,75,20.71,CA,58,1666653993
Tottori-shi,35.5,134.2333,51.87,75,9.22,JP,87,1666654255
Akdepe,42.0551,59.3788,51.89,99,8.01,TM,46,1666654255
Eirunepé,-6.6603,-69.8736,76.69,61,2.46,BR,85,1666654256
Novotroitskaya,45.3267,41.5253,52.61,94,12.12,RU,69,1666654256
Taldan,53.6667,124.8,30.18,100,6.98,RU,68,1666654256
Niceville,30.5169,-86.4822,76.05,0,8.05,US,85,1666653970
Beloha,-25.1667,45.05,65.97,26,3.74,MG,95,1666654257
Bathsheba,13.2167,-59.5167,83.01,20,6.91,BB,83,1666653995
Ormond Beach,29.2858,-81.0559,74.01,0,10.36,US,76,1666654047
Khasan,42.4308,130.6434,39.51,0,4.36,RU,55,1666654071
Bubaque,11.2833,-15.8333,82.54,83,8.9,GW,73,1666654059
Chabahar,25.2919,60.643,80.01,0,7.07,IR,69,1666653907
Trail,49.0998,-117.7022,44.69,100,3.27,CA,98,1666654218
Manthani,18.65,79.6667,63.46,6,2.95,IN,81,1666654258
Altay,47.8667,88.1167,27.64,0,5.1,CN,33,1666654259
Trairi,-3.2778,-39.2689,78.96,3,12.93,BR,81,1666654120
Twentynine Palms,34.1356,-116.0542,70.97,0,1.01,US,12,1666654260
Tunoshna,57.5459,40.1254,33.78,0,4.47,RU,75,1666654260
Nemuro,43.3236,145.575,46.96,71,14.97,JP,57,1666653940
Kiama,-34.6833,150.8667,76.24,81,5.01,AU,84,1666654260
Virden,39.5009,-89.7679,73.11,87,19.66,US,56,1666654090
El Tigre,8.8875,-64.2454,81.18,99,5.12,VE,70,1666654261
Uvinza,-5.1036,30.3911,75.24,78,2.35,TZ,46,1666654262
Port Hedland,-20.3167,118.5667,73.45,0,10.36,AU,68,1666654075
Haines Junction,60.7522,-137.5108,28.35,100,10.36,CA,59,1666653959
Dhībān,35.0365,40.5167,68.97,0,5.66,SY,31,1666654263
Naze,28.3667,129.4833,67.12,52,19.06,JP,59,1666654029
Mandalgovi,45.7625,106.2708,32.18,98,20.76,MN,82,1666653935
Krasnoarmeysk,51.0239,45.6969,44.11,100,15.05,RU,87,1666654263
Malanville,11.8685,3.3899,81.77,14,7.05,BJ,39,1666654264
Cabo San Lucas,22.8909,-109.9124,85.6,0,5.75,MX,54,1666653898
Saurimo,-9.6608,20.3916,65.57,90,3.02,AO,88,1666654265
Kokopo,-4.352,152.2633,85.05,8,1.99,PG,62,1666654108
Arrondissement de Mayenne,48.3333,-0.6667,54.84,68,9.17,FR,96,1666654265
Vigrestad,58.5667,5.7,51.48,100,4.85,NO,87,1666654266
Yenagoa,4.9247,6.2642,76.3,98,3.53,NG,94,1666654077
Barcelos,41.5388,-8.6151,64.54,100,4.47,PT,92,1666653991
Cabugao,17.7931,120.4578,78.66,100,7.14,PH,86,1666654267
Cayenne,4.9333,-52.3333,82.44,0,4.61,GF,83,1666654153
Camocim,-2.9022,-40.8411,79.5,4,17.13,BR,77,1666654268
Vestmannaeyjar,63.4427,-20.2734,44.6,100,9.19,IS,82,1666654070
Ternate,0.8,127.4,83.66,96,4.23,ID,75,1666654101
Kalmunai,7.4167,81.8167,77.94,76,1.14,LK,84,1666654268
Oytal,42.9057,73.2697,46.67,98,0.65,KZ,74,1666654270
Gwadar,25.1216,62.3254,78.3,0,8.93,PK,71,1666654270
Kismayo,-0.3582,42.5454,77.68,42,13.18,SO,84,1666654270
Kattivākkam,13.2167,80.3167,75.29,20,1.32,IN,61,1666654271
Oranjemund,-28.55,16.4333,59.04,100,9.64,NA,93,1666653960
Mount Isa,-20.7333,139.5,85.77,6,10.36,AU,26,1666654011
Shelburne,44.0787,-80.2041,59.79,44,8.39,CA,66,1666653922
Maceió,-9.6658,-35.7353,76.44,20,8.05,BR,88,1666654272
São João da Barra,-21.6403,-41.0511,75.29,56,6.89,BR,87,1666653900
Ust'-Ishim,57.6935,71.1665,32.77,100,12.8,RU,76,1666654272
Mariehamn,60.0973,19.9348,46.26,100,9.22,AX,87,1666653987
Xining,36.6167,101.7667,45.81,100,2.1,CN,71,1666653906
Rørvik,64.8621,11.2373,41.11,32,5.75,NO,81,1666654273
